transaction_id,user_id,amount,timestamp,city,latitude,longitude,transaction_type,merchant,is_seed_fraud,kafka_ts,event_time,fraud_high_value,fraud_location_anomaly,is_fraud,fraud_reason,processed_at
6e123834-91ab-41b8-9072-75145f63f6e3,user_0002,2610.85,2026-04-09T20:14:05.941004+00:00,Philadelphia,39.862771045348076,-75.24387888586824,online_payment,Villanueva-Taylor,false,2026-04-09T20:14:05.941Z,2026-04-09T20:14:05.941Z,false,true,true,location_anomaly,2026-04-09T20:14:34.010Z
fe01db74-a919-40c4-beb0-ef7356b75d51,user_0002,11764.61,2026-04-09T20:14:26.169795+00:00,Paris,48.758539419548306,2.3549873270182355,withdrawal,Reed Ltd,true,2026-04-09T20:14:26.170Z,2026-04-09T20:14:26.169Z,true,true,true,high_value+location_anomaly,2026-04-09T20:14:34.010Z
4d409724-cd92-4ff9-84f9-4bb5085ab286,user_0003,1317.5,2026-04-09T20:14:19.415546+00:00,London,51.56701783083301,-0.08093539468408864,refund,Bryan-Lawrence,false,2026-04-09T20:14:19.416Z,2026-04-09T20:14:19.415Z,false,true,true,location_anomaly,2026-04-09T20:14:34.010Z
605eacd7-e72b-4452-8b46-c601f5790706,user_0003,1690.67,2026-04-09T20:14:24.938665+00:00,Tokyo,35.67176947362217,139.551320584293,refund,Wilkerson-James,false,2026-04-09T20:14:24.938Z,2026-04-09T20:14:24.938Z,false,true,true,location_anomaly,2026-04-09T20:14:34.010Z
9e79bcf8-0b7d-461c-97fa-fb986745c333,user_0005,1845.28,2026-04-09T20:14:29.856921+00:00,Tokyo,35.60802917076798,139.69280455320427,refund,Graves-Blake,false,2026-04-09T20:14:29.858Z,2026-04-09T20:14:29.856Z,false,true,true,location_anomaly,2026-04-09T20:14:34.010Z
e4c7b788-12cb-413f-8d1c-cdb7aba2f8c8,user_0009,26.75,2026-04-09T20:14:14.518871+00:00,San Antonio,29.508260325805306,-98.53830127444655,withdrawal,"Rocha, Jones and Wright",false,2026-04-09T20:14:14.519Z,2026-04-09T20:14:14.518Z,false,true,true,location_anomaly,2026-04-09T20:14:34.010Z
bf9a16f0-5621-4f5a-b5a2-0fc0d3a2f8c6,user_0009,2135.6,2026-04-09T20:14:27.606541+00:00,New York,40.72528668854571,-74.10162927074236,purchase,"Lewis, James and Dunn",false,2026-04-09T20:14:27.607Z,2026-04-09T20:14:27.606Z,false,true,true,location_anomaly,2026-04-09T20:14:34.010Z
36686e23-ab42-4b8d-a44b-807e72cec3a6,user_0010,1837.65,2026-04-09T20:14:14.106942+00:00,London,51.45740055669676,-0.20833892119911382,online_payment,"Hood, Anderson and Moore",false,2026-04-09T20:14:14.108Z,2026-04-09T20:14:14.106Z,false,true,true,location_anomaly,2026-04-09T20:14:34.010Z
191c4cad-fc0c-4f13-abaf-bcca4dedc670,user_0010,2080.46,2026-04-09T20:14:15.948548+00:00,San Antonio,29.3327443540526,-98.39825631622448,online_payment,"Johnson, Little and Black",false,2026-04-09T20:14:15.948Z,2026-04-09T20:14:15.948Z,false,true,true,location_anomaly,2026-04-09T20:14:34.010Z
16c17a97-2a67-4642-aa5a-206d4f72feee,user_0014,196.04,2026-04-09T20:14:26.375686+00:00,Philadelphia,40.04583387171041,-75.14370991190698,transfer,Bowman-Garrison,false,2026-04-09T20:14:26.377Z,2026-04-09T20:14:26.375Z,false,true,true,location_anomaly,2026-04-09T20:14:34.010Z
d10fe3f8-6091-4183-8cb4-73e3917c7c78,user_0015,1403.18,2026-04-09T20:14:10.420904+00:00,Dallas,32.799257366381944,-96.8322400671324,transfer,"Wood, Walters and Foster",false,2026-04-09T20:14:10.421Z,2026-04-09T20:14:10.420Z,false,true,true,location_anomaly,2026-04-09T20:14:34.010Z
3669b93c-9581-4677-96c6-1cfa3a6ffb5f,user_0015,1966.64,2026-04-09T20:14:22.275892+00:00,Paris,48.798815460775465,2.451772697304027,online_payment,"Pierce, Myers and Garcia",false,2026-04-09T20:14:22.276Z,2026-04-09T20:14:22.275Z,false,true,true,location_anomaly,2026-04-09T20:14:34.010Z
859fd1f0-1275-4e37-ac8d-7f876b6d45c0,user_0015,2062.67,2026-04-09T20:14:24.528984+00:00,Tokyo,35.70358580401946,139.63706511316732,withdrawal,Jones Ltd,false,2026-04-09T20:14:24.529Z,2026-04-09T20:14:24.528Z,false,true,true,location_anomaly,2026-04-09T20:14:34.010Z
3f58d3a6-9840-4dfc-8616-e1cfdd65c6d6,user_0015,1908.51,2026-04-09T20:14:26.990098+00:00,Chicago,41.92610410791121,-87.70668076728514,refund,"Curry, Jackson and Anderson",false,2026-04-09T20:14:26.991Z,2026-04-09T20:14:26.990Z,false,true,true,location_anomaly,2026-04-09T20:14:34.010Z
ebc8d26c-1e17-481e-8a17-6b401218626f,user_0033,196.74,2026-04-09T20:14:07.153556+00:00,Tokyo,35.580208960305676,139.74672867204856,purchase,Hayes Group,false,2026-04-09T20:14:07.154Z,2026-04-09T20:14:07.153Z,false,true,true,location_anomaly,2026-04-09T20:14:34.010Z
8f0c9d61-6c9f-4560-be2d-fb62cbeabfc5,user_0040,1581.18,2026-04-09T20:14:14.313393+00:00,Sydney,-33.84852266046926,151.22624590655437,refund,Campos-Cherry,false,2026-04-09T20:14:14.314Z,2026-04-09T20:14:14.313Z,false,true,true,location_anomaly,2026-04-09T20:14:34.010Z
2dcf4f8c-0ee1-4c81-8dea-f59848ac9d2a,user_0042,454.03,2026-04-09T20:14:23.702355+00:00,New York,40.7128,-74.006,online_payment,Douglas-Jackson,true,2026-04-09T20:14:23.705Z,2026-04-09T20:14:23.702Z,false,true,true,location_anomaly,2026-04-09T20:14:34.010Z
96dcccbb-13a8-41ff-9941-64ffba867d22,user_0042,31.95,2026-04-09T20:14:28.017797+00:00,Los Angeles,34.07770250176326,-118.28940272869717,online_payment,"Lynn, Adams and Bell",false,2026-04-09T20:14:28.018Z,2026-04-09T20:14:28.017Z,false,true,true,location_anomaly,2026-04-09T20:14:34.010Z
