transaction_id,user_id,amount,timestamp,city,latitude,longitude,transaction_type,merchant,is_seed_fraud,kafka_ts,event_time,fraud_high_value,fraud_location_anomaly,is_fraud,fraud_reason,processed_at
98cc52c7-675b-4496-a255-cea2a64ccc40,user_0018,2124.16,2026-04-09T20:06:01.290992+00:00,Houston,29.792169141480795,-95.43487916686055,withdrawal,Gomez-Baker,false,2026-04-09T20:06:01.291Z,2026-04-09T20:06:01.290Z,false,true,true,location_anomaly,2026-04-09T20:06:34.734Z
98242535-0f2c-4c12-8906-08c01b805ba8,user_0018,675.54,2026-04-09T20:06:16.994591+00:00,Sydney,-33.88228655084037,151.13407022822722,purchase,Dixon Group,false,2026-04-09T20:06:16.994Z,2026-04-09T20:06:16.994Z,false,true,true,location_anomaly,2026-04-09T20:06:34.734Z
59c40c8e-2cb0-48a3-a0aa-5e30db3996c2,user_0018,2788.85,2026-04-09T20:06:21.503611+00:00,Chicago,41.801687173436825,-87.72274837638261,withdrawal,Medina Ltd,false,2026-04-09T20:06:21.504Z,2026-04-09T20:06:21.503Z,false,true,true,location_anomaly,2026-04-09T20:06:34.734Z
f0b61ca8-1f28-4dd6-ae09-ea8ea7d0b425,user_0019,180.82,2026-04-09T20:06:15.557459+00:00,Tokyo,35.69809882753648,139.58811042807469,withdrawal,Garcia-Ware,false,2026-04-09T20:06:15.557Z,2026-04-09T20:06:15.557Z,false,true,true,location_anomaly,2026-04-09T20:06:34.734Z
0265c93c-502c-48a6-89b6-bf039b3676f3,user_0019,1370.87,2026-04-09T20:06:25.392833+00:00,Los Angeles,34.146579063008325,-118.2237892349775,refund,Hunt Inc,false,2026-04-09T20:06:25.393Z,2026-04-09T20:06:25.392Z,false,true,true,location_anomaly,2026-04-09T20:06:34.734Z
6dbe18a0-7704-44b5-ae1f-43ed8b1d3634,user_0023,171.65,2026-04-09T20:06:26.826519+00:00,Philadelphia,39.9526,-75.1652,online_payment,Wilson-Edwards,true,2026-04-09T20:06:26.828Z,2026-04-09T20:06:26.826Z,false,true,true,location_anomaly,2026-04-09T20:06:34.734Z
79abd22c-3c09-4c9e-a344-262fe4f80b1d,user_0024,2348.38,2026-04-09T20:06:07.600657+00:00,Seattle,47.688326415298846,-122.39657746209234,withdrawal,Collier LLC,false,2026-04-09T20:06:07.601Z,2026-04-09T20:06:07.600Z,false,true,true,location_anomaly,2026-04-09T20:06:34.734Z
0c537b64-45ce-4729-8a65-550b96f01315,user_0024,1816.73,2026-04-09T20:06:24.161395+00:00,New York,40.69927593769031,-73.98290138824223,withdrawal,Reed-Pierce,false,2026-04-09T20:06:24.162Z,2026-04-09T20:06:24.161Z,false,true,true,location_anomaly,2026-04-09T20:06:34.734Z
9f6a8919-c0b0-4c48-bfde-90cba723ad0e,user_0024,1871.55,2026-04-09T20:06:25.597559+00:00,Phoenix,33.520205680557666,-112.01479009952807,refund,"Lara, House and Roberson",false,2026-04-09T20:06:25.598Z,2026-04-09T20:06:25.597Z,false,true,true,location_anomaly,2026-04-09T20:06:34.734Z
2e959f25-6324-442f-8428-ee9e8f323577,user_0032,647.37,2026-04-09T20:06:10.045584+00:00,Philadelphia,39.94138776001954,-75.20867898674958,transfer,Cruz-Andrews,false,2026-04-09T20:06:10.046Z,2026-04-09T20:06:10.045Z,false,true,true,location_anomaly,2026-04-09T20:06:34.734Z
bbc4865d-235d-4efd-91f7-cfc3f15fa5b5,user_0032,1689.08,2026-04-09T20:06:14.947766+00:00,Dallas,32.823250627365866,-96.7473895613295,transfer,"Watkins, Anderson and Lowery",false,2026-04-09T20:06:14.948Z,2026-04-09T20:06:14.947Z,false,true,true,location_anomaly,2026-04-09T20:06:34.734Z
d25e11ba-21c7-46a7-9862-472064a465e0,user_0032,2793.32,2026-04-09T20:06:19.444097+00:00,Miami,25.85382796146153,-80.10507461500318,refund,"Bond, Harvey and Garcia",false,2026-04-09T20:06:19.445Z,2026-04-09T20:06:19.444Z,false,true,true,location_anomaly,2026-04-09T20:06:34.734Z
eaf602d7-e5d1-4e95-a849-19fafe815387,user_0032,2442.95,2026-04-09T20:06:20.063099+00:00,Dallas,32.87235582731503,-96.73308618488035,withdrawal,"Duncan, Stokes and Krueger",false,2026-04-09T20:06:20.064Z,2026-04-09T20:06:20.063Z,false,true,true,location_anomaly,2026-04-09T20:06:34.734Z
4ab96cfd-a915-49ae-aa4b-56f96ef5c5c7,user_0032,1632.76,2026-04-09T20:06:23.956643+00:00,Philadelphia,39.87663487171817,-75.23866871812699,refund,Oliver Inc,false,2026-04-09T20:06:23.957Z,2026-04-09T20:06:23.956Z,false,true,true,location_anomaly,2026-04-09T20:06:34.734Z
2c6ee7b4-1d97-4edf-ad8b-112b0007b2a8,user_0035,52.99,2026-04-09T20:06:13.926627+00:00,Miami,25.75033666743318,-80.20559397738957,refund,"Daniel, Little and Burke",false,2026-04-09T20:06:13.927Z,2026-04-09T20:06:13.926Z,false,true,true,location_anomaly,2026-04-09T20:06:34.734Z
f63ad2d2-9d90-4f28-a0bd-ef3716e36638,user_0035,2794.55,2026-04-09T20:06:23.340494+00:00,Los Angeles,33.95843389974121,-118.31760732779215,refund,"Swanson, Maxwell and Smith",false,2026-04-09T20:06:23.341Z,2026-04-09T20:06:23.340Z,false,true,true,location_anomaly,2026-04-09T20:06:34.734Z
d1b4687d-d4b5-435a-be5c-b6cb1ae57f51,user_0035,2371.86,2026-04-09T20:06:29.892193+00:00,Dallas,32.777659844914595,-96.70625454428952,withdrawal,Vasquez Inc,false,2026-04-09T20:06:29.892Z,2026-04-09T20:06:29.892Z,false,true,true,location_anomaly,2026-04-09T20:06:34.734Z
b1f2fe39-49fe-454d-91a0-9b76c9fb2a73,user_0038,528.73,2026-04-09T20:06:25.801121+00:00,Philadelphia,39.95053829919636,-75.1348876623239,transfer,Thomas PLC,false,2026-04-09T20:06:25.801Z,2026-04-09T20:06:25.801Z,false,true,true,location_anomaly,2026-04-09T20:06:34.734Z
970a8f6c-8d64-4f94-b707-1a1dffc95cea,user_0038,27.2,2026-04-09T20:06:27.642006+00:00,London,51.50346202548289,-0.06897496544789355,withdrawal,"Roy, Salazar and Brown",false,2026-04-09T20:06:27.642Z,2026-04-09T20:06:27.642Z,false,true,true,location_anomaly,2026-04-09T20:06:34.734Z
0e405fd8-a96a-4660-b2e7-1831c62b8475,user_0038,1943.31,2026-04-09T20:06:29.280357+00:00,Dallas,32.75920355342035,-96.79372443263566,refund,"Payne, Cruz and Cardenas",false,2026-04-09T20:06:29.281Z,2026-04-09T20:06:29.280Z,false,true,true,location_anomaly,2026-04-09T20:06:34.734Z
edcc4bca-0687-4d00-a3a4-7943b0779f68,user_0043,2071.32,2026-04-09T20:06:09.023812+00:00,Miami,25.860535531101547,-80.25413493870457,online_payment,Martinez-Williamson,false,2026-04-09T20:06:09.024Z,2026-04-09T20:06:09.023Z,false,true,true,location_anomaly,2026-04-09T20:06:34.734Z
4a5b6293-7bb9-47e5-94f0-a9cc33cefdfd,user_0043,916.3,2026-04-09T20:06:15.354908+00:00,Dallas,32.86801540109266,-96.83866153767511,online_payment,"Lambert, Cruz and Parker",false,2026-04-09T20:06:15.355Z,2026-04-09T20:06:15.354Z,false,true,true,location_anomaly,2026-04-09T20:06:34.734Z
5fc17038-c198-4b4f-812d-ceeceac9a0ac,user_0043,2239.69,2026-04-09T20:06:29.074138+00:00,Tokyo,35.59283164693903,139.61210681097802,transfer,Clark PLC,false,2026-04-09T20:06:29.074Z,2026-04-09T20:06:29.074Z,false,true,true,location_anomaly,2026-04-09T20:06:34.734Z
86522e79-d61b-4dbc-9a5b-201c26d0b951,user_0046,171.1,2026-04-09T20:06:13.722612+00:00,Paris,48.81718747658098,2.3418441750596006,refund,Oliver-Peterson,false,2026-04-09T20:06:13.723Z,2026-04-09T20:06:13.722Z,false,true,true,location_anomaly,2026-04-09T20:06:34.734Z
7e5ac66e-ee96-4565-8128-c68fda8319f1,user_0046,2899.2,2026-04-09T20:06:22.120981+00:00,Miami,25.663463144992303,-80.16432824874406,refund,"Frost, Gibson and Webb",false,2026-04-09T20:06:22.122Z,2026-04-09T20:06:22.120Z,false,true,true,location_anomaly,2026-04-09T20:06:34.734Z
