transaction_id,user_id,amount,timestamp,city,latitude,longitude,transaction_type,merchant,is_seed_fraud,kafka_ts,event_time,fraud_high_value,fraud_location_anomaly,is_fraud,fraud_reason,processed_at
81f1ca29-8102-4b99-afe8-cdfe73085a22,user_0008,1216.8,2026-04-09T20:13:07.915429+00:00,Dallas,32.73258915820747,-96.81469304690721,online_payment,Owens-Diaz,false,2026-04-09T20:13:07.915Z,2026-04-09T20:13:07.915Z,false,true,true,location_anomaly,2026-04-09T20:13:34.323Z
4dc5eb39-a075-4df8-9266-96e0f7013e09,user_0008,232.04,2026-04-09T20:13:28.202105+00:00,New York,40.776262823990706,-73.9117029825875,online_payment,"Dominguez, Nelson and Kim",false,2026-04-09T20:13:28.203Z,2026-04-09T20:13:28.202Z,false,true,true,location_anomaly,2026-04-09T20:13:34.323Z
cac66b43-d532-4fe8-8d50-ae23119c04d2,user_0013,1978.84,2026-04-09T20:13:08.321647+00:00,Seattle,47.64355218725425,-122.24370736960672,transfer,Anderson-Hamilton,false,2026-04-09T20:13:08.321Z,2026-04-09T20:13:08.321Z,false,true,true,location_anomaly,2026-04-09T20:13:34.323Z
78860dcd-8b3a-4bb1-a1f2-df0c624d294e,user_0013,448.26,2026-04-09T20:13:11.381081+00:00,New York,40.622962753651414,-73.91055373909425,purchase,"Arroyo, Hicks and Kelly",false,2026-04-09T20:13:11.382Z,2026-04-09T20:13:11.381Z,false,true,true,location_anomaly,2026-04-09T20:13:34.323Z
fc3abff5-bb94-43b7-a528-7f4020f16153,user_0013,1593.19,2026-04-09T20:13:12.407270+00:00,Sydney,-33.807306359708754,151.1615202257048,transfer,"Davidson, Rogers and Lester",false,2026-04-09T20:13:12.408Z,2026-04-09T20:13:12.407Z,false,true,true,location_anomaly,2026-04-09T20:13:34.323Z
9f61025c-a73c-4b40-81c2-281bb291b289,user_0013,2873.85,2026-04-09T20:13:23.693444+00:00,Houston,29.71603885250056,-95.37489578123468,withdrawal,"Hill, Johnson and Smith",false,2026-04-09T20:13:23.694Z,2026-04-09T20:13:23.693Z,false,true,true,location_anomaly,2026-04-09T20:13:34.323Z
97bb4577-364a-43cb-ad00-00950872c656,user_0013,804.82,2026-04-09T20:13:29.432931+00:00,Phoenix,33.440972671132805,-112.04736551236782,withdrawal,"Green, Nelson and Warner",false,2026-04-09T20:13:29.434Z,2026-04-09T20:13:29.432Z,false,true,true,location_anomaly,2026-04-09T20:13:34.323Z
d8839561-de24-471b-8492-182ac2904a49,user_0021,788.78,2026-04-09T20:13:10.358022+00:00,New York,40.621795874546486,-73.99987499616525,transfer,Brennan-Brady,false,2026-04-09T20:13:10.358Z,2026-04-09T20:13:10.358Z,false,true,true,location_anomaly,2026-04-09T20:13:34.323Z
32cadf72-f563-4b15-afc2-13221aa3c539,user_0021,2129.14,2026-04-09T20:13:24.102338+00:00,Phoenix,33.45160993800412,-112.16254936666462,withdrawal,"Douglas, Burns and Brown",false,2026-04-09T20:13:24.103Z,2026-04-09T20:13:24.102Z,false,true,true,location_anomaly,2026-04-09T20:13:34.323Z
b0754b69-33e3-4569-a773-9bc145f51a2d,user_0021,1195.44,2026-04-09T20:13:27.384187+00:00,Chicago,41.95799031502749,-87.69488160315267,transfer,Russo and Sons,false,2026-04-09T20:13:27.384Z,2026-04-09T20:13:27.384Z,false,true,true,location_anomaly,2026-04-09T20:13:34.323Z
5874446a-f267-4fc2-a37b-905fa65d9b14,user_0022,124.7,2026-04-09T20:13:26.767147+00:00,Philadelphia,39.9526,-75.1652,online_payment,Jones Group,true,2026-04-09T20:13:26.769Z,2026-04-09T20:13:26.767Z,false,true,true,location_anomaly,2026-04-09T20:13:34.323Z
515f9a4a-7c5c-438a-92dd-30e73bb6a499,user_0026,1745.12,2026-04-09T20:13:20.613520+00:00,Los Angeles,33.95363607869792,-118.24125237477273,transfer,Campbell-Butler,false,2026-04-09T20:13:20.614Z,2026-04-09T20:13:20.613Z,false,true,true,location_anomaly,2026-04-09T20:13:34.323Z
393c9b3b-3d2a-4aa8-9d33-8214581694a5,user_0029,2821.73,2026-04-09T20:13:13.426608+00:00,Chicago,41.97720253097579,-87.65876672878359,purchase,George-Robinson,false,2026-04-09T20:13:13.427Z,2026-04-09T20:13:13.426Z,false,true,true,location_anomaly,2026-04-09T20:13:34.323Z
25a3fdaa-9c8e-4241-9333-a1b91d7c7aac,user_0029,965.47,2026-04-09T20:13:18.760040+00:00,New York,40.7128,-74.006,purchase,Rosario-Taylor,true,2026-04-09T20:13:18.760Z,2026-04-09T20:13:18.760Z,false,true,true,location_anomaly,2026-04-09T20:13:34.323Z
0a0762bb-944a-44b2-a5f7-1a64c1e1f472,user_0029,965.47,2026-04-09T20:13:18.760040+00:00,London,51.5074,-0.1278,purchase,Rosario-Taylor,true,2026-04-09T20:13:18.761Z,2026-04-09T20:13:18.760Z,false,true,true,location_anomaly,2026-04-09T20:13:34.323Z
cc5465e5-b01c-4912-a222-61fc5b12ee25,user_0029,597.46,2026-04-09T20:13:21.234598+00:00,Tokyo,35.674306134034374,139.69371988052143,withdrawal,Trujillo-Moore,false,2026-04-09T20:13:21.235Z,2026-04-09T20:13:21.234Z,false,true,true,location_anomaly,2026-04-09T20:13:34.323Z
077efa21-911b-4d87-b550-c4d55e2e9123,user_0030,1476.68,2026-04-09T20:13:13.631871+00:00,London,51.5074,-0.1278,purchase,Rangel-Payne,true,2026-04-09T20:13:13.632Z,2026-04-09T20:13:13.631Z,false,true,true,location_anomaly,2026-04-09T20:13:34.323Z
a378149b-77a0-403e-b9ec-7f0a7d45e423,user_0030,1217.74,2026-04-09T20:13:24.510544+00:00,Seattle,47.67917755423299,-122.30493659837462,withdrawal,Vega-Griffin,false,2026-04-09T20:13:24.511Z,2026-04-09T20:13:24.510Z,false,true,true,location_anomaly,2026-04-09T20:13:34.323Z
baf75f94-4e7f-43ca-b7c4-a0a5ef3ce1d7,user_0030,2440.65,2026-04-09T20:13:24.716556+00:00,San Antonio,29.422262215222652,-98.58812365202589,purchase,Campos-Taylor,false,2026-04-09T20:13:24.716Z,2026-04-09T20:13:24.716Z,false,true,true,location_anomaly,2026-04-09T20:13:34.323Z
e2bb1fd3-2f85-4215-9d03-66ff3c010c46,user_0047,597.8,2026-04-09T20:13:17.734023+00:00,Chicago,41.83311546535144,-87.6591167330195,online_payment,Terrell Ltd,false,2026-04-09T20:13:17.734Z,2026-04-09T20:13:17.734Z,false,true,true,location_anomaly,2026-04-09T20:13:34.323Z
529fa721-f57f-4e3c-a0fd-5a5783b257a7,user_0047,1722.16,2026-04-09T20:13:17.936099+00:00,Dallas,32.743239779274944,-96.81197369239284,withdrawal,"Escobar, May and Smith",false,2026-04-09T20:13:17.936Z,2026-04-09T20:13:17.936Z,false,true,true,location_anomaly,2026-04-09T20:13:34.323Z
03bba971-7a4b-44e9-8ec1-8b1e3f5354bd,user_0050,2641.18,2026-04-09T20:13:07.711109+00:00,Philadelphia,39.90697675794179,-75.24633828643759,transfer,Jones-Jackson,false,2026-04-09T20:13:07.711Z,2026-04-09T20:13:07.711Z,false,true,true,location_anomaly,2026-04-09T20:13:34.323Z
2167b307-b4e0-4cc7-b04f-41403f258893,user_0050,1402.5,2026-04-09T20:13:23.070153+00:00,London,51.57539098816833,-0.06892475365602177,transfer,Young-Moore,false,2026-04-09T20:13:23.071Z,2026-04-09T20:13:23.070Z,false,true,true,location_anomaly,2026-04-09T20:13:34.323Z
